{
  "labels": {
    "id": "ID",
    "subject": "Subject",
    "address": "ADDRESS",
    "date": "DATE",
    "priority": "PRIORITY",
    "status": "STATUS",
    "report": "REPORT"
  },
  "rows": [
    {
      "id": "00001",
      "subject": "Waterlogging",
      "address": "Main Road, Ranchi",
      "date": "2022-07-14T00:00:00Z",
      "priority": "Highest",
      "status": "Processing",
      "lat": 23.3603,
      "lng": 85.3347
    },
    {
      "id": "00002",
      "subject": "Broken Streetlight",
      "address": "Kanke Road",
      "date": "2023-01-19T00:00:00Z",
      "priority": "Medium",
      "status": "Completed",
      "lat": 23.3964,
      "lng": 85.3212
    },
    {
      "id": "00003",
      "subject": "Potholes",
      "address": "Harmu Housing Colony",
      "date": "2021-09-08T00:00:00Z",
      "priority": "Low",
      "status": "Rejected",
      "lat": 23.3580,
      "lng": 85.3010
    },
    {
      "id": "00004",
      "subject": "Garbage Collection Delay",
      "address": "Lalpur Chowk",
      "date": "2024-02-03T00:00:00Z",
      "priority": "Highest",
      "status": "Processing",
      "lat": 23.3697,
      "lng": 85.3416
    },
    {
      "id": "00005",
      "subject": "Drainage Blockage",
      "address": "Kokar Chowk",
      "date": "2023-08-21T00:00:00Z",
      "priority": "Medium",
      "status": "Completed",
      "lat": 23.3800,
      "lng": 85.3450
    },
    {
      "id": "00006",
      "subject": "Illegal Parking",
      "address": "Albert Ekka Chowk",
      "date": "2022-05-10T00:00:00Z",
      "priority": "Low",
      "status": "Processing",
      "lat": 23.3622,
      "lng": 85.3249
    },
    {
      "id": "00007",
      "subject": "Dustbin Overflow",
      "address": "Upper Bazar",
      "date": "2024-03-12T00:00:00Z",
      "priority": "Highest",
      "status": "Completed",
      "lat": 23.3655,
      "lng": 85.3150
    },
    {
      "id": "00008",
      "subject": "Open Manhole",
      "address": "Kantatoli Chowk",
      "date": "2023-06-27T00:00:00Z",
      "priority": "Medium",
      "status": "Rejected",
      "lat": 23.3675,
      "lng": 85.3490
    },
    {
      "id": "00009",
      "subject": "Broken Footpath",
      "address": "Ashok Nagar",
      "date": "2021-11-15T00:00:00Z",
      "priority": "Low",
      "status": "Completed",
      "lat": 23.3390,
      "lng": 85.3245
    },
    {
      "id": "00010",
      "subject": "Garbage Dump",
      "address": "Morabadi Ground",
      "date": "2022-09-09T00:00:00Z",
      "priority": "Medium",
      "status": "Processing",
      "lat": 23.3910,
      "lng": 85.3335
    },
    {
      "id": "00011",
      "subject": "Waterlogging",
      "address": "Hindpiri",
      "date": "2024-04-01T00:00:00Z",
      "priority": "Highest",
      "status": "Processing",
      "lat": 23.3550,
      "lng": 85.3135
    },
    {
      "id": "00012",
      "subject": "Streetlight Not Working",
      "address": "Ratu Road",
      "date": "2022-02-11T00:00:00Z",
      "priority": "Low",
      "status": "Rejected",
      "lat": 23.3542,
      "lng": 85.2945
    },
    {
      "id": "00013",
      "subject": "Potholes",
      "address": "Bariatu Road",
      "date": "2023-07-05T00:00:00Z",
      "priority": "Medium",
      "status": "Completed",
      "lat": 23.3912,
      "lng": 85.3435
    },
    {
      "id": "00014",
      "subject": "Garbage Burning",
      "address": "Doranda",
      "date": "2021-04-18T00:00:00Z",
      "priority": "Highest",
      "status": "Processing",
      "lat": 23.3165,
      "lng": 85.3205
    },
    {
      "id": "00015",
      "subject": "Encroachment",
      "address": "Piska More",
      "date": "2024-05-07T00:00:00Z",
      "priority": "Low",
      "status": "Completed",
      "lat": 23.3620,
      "lng": 85.2875
    },
    {
      "id": "00016",
      "subject": "Drainage Overflow",
      "address": "Booty More",
      "date": "2022-10-23T00:00:00Z",
      "priority": "Medium",
      "status": "Processing",
      "lat": 23.3905,
      "lng": 85.3605
    }
  ]
}
